[{"address":"20 Cardinal Hayes Place, New York, NY","name":"A DESIGN FOR LIVING ","days":"Tuesdays","times":"7:00 AM to 8:00 AM","latLong":{"lat":40.7133628,"lng":-74.0026069}},{"address":"20 Cardinal Hayes Place, New York, NY","name":"A DESIGN FOR LIVING ","days":"Thursdays","times":"7:00 AM to 8:00 AM","latLong":{"lat":40.7133628,"lng":-74.0026069}},{"address":"20 Cardinal Hayes Place, New York, NY","name":"CHAMBERS STREET ","days":"Mondays","times":"12:15 PM to 1:15 PM","latLong":{"lat":40.7133628,"lng":-74.0026069}},{"address":"20 Cardinal Hayes Place, New York, NY","name":"CHAMBERS STREET ","days":"Wednesdays","times":"12:15 PM to 1:15 PM","latLong":{"lat":40.7133628,"lng":-74.0026069}},{"address":"20 Cardinal Hayes Place, New York, NY","name":"CHAMBERS STREET ","days":"Thursdays","times":"12:15 PM to 1:15 PM","latLong":{"lat":40.7133628,"lng":-74.0026069}},{"address":"20 Cardinal Hayes Place, New York, NY","name":"CHAMBERS STREET ","days":"Fridays","times":"12:15 PM to 1:15 PM","latLong":{"lat":40.7133628,"lng":-74.0026069}},{"address":"29 Mott Street, New York, NY","name":"CHINATOWN ","days":"Tuesdays","times":"6:30 PM to 7:30 PM","latLong":{"lat":40.7148116,"lng":-73.99911709999999}},{"address":"49 Fulton Street, New York, NY","name":"DOWNTOWN ","days":"Mondays","times":"7:00 PM to 8:00 PM","latLong":{"lat":40.7081354,"lng":-74.00394519999999}},{"address":"44 John Street, New York, NY","name":"EXCHANGE VIEWS @ JOHN STREET CHURCH ","days":"Tuesdays","times":"12:15 PM to 1:15 PM","latLong":{"lat":40.7091344,"lng":-74.00810179999999}},{"address":"44 John Street, New York, NY","name":"EXCHANGE VIEWS @ JOHN STREET CHURCH ","days":"Mondays","times":"12:15 PM to 1:15 PM","latLong":{"lat":40.7091344,"lng":-74.00810179999999}},{"address":"44 John Street, New York, NY","name":"EXCHANGE VIEWS @ JOHN STREET CHURCH ","days":"Thursdays","times":"12:15 PM to 1:15 PM","latLong":{"lat":40.7091344,"lng":-74.00810179999999}},{"address":"44 John Street, New York, NY","name":"EXCHANGE VIEWS @ JOHN STREET CHURCH ","days":"Mondays","times":"1:30 PM to 2:30 PM","latLong":{"lat":40.7091344,"lng":-74.00810179999999}},{"address":"44 John Street, New York, NY","name":"EXCHANGE VIEWS @ JOHN STREET CHURCH ","days":"Thursdays","times":"1:30 PM to 2:30 PM","latLong":{"lat":40.7091344,"lng":-74.00810179999999}},{"address":"49 Fulton Street, New York, NY","name":"EXCHANGE VIEWS @ ST. MARGARET'S HOUSE ","days":"Mondays","times":"6:30 AM to 7:30 AM","latLong":{"lat":40.7081354,"lng":-74.00394519999999}},{"address":"49 Fulton Street, New York, NY","name":"EXCHANGE VIEWS @ ST. MARGARET'S HOUSE ","days":"Tuesdays","times":"6:30 AM to 7:30 AM","latLong":{"lat":40.7081354,"lng":-74.00394519999999}},{"address":"49 Fulton Street, New York, NY","name":"EXCHANGE VIEWS @ ST. MARGARET'S HOUSE ","days":"Wednesdays","times":"6:30 AM to 7:30 AM","latLong":{"lat":40.7081354,"lng":-74.00394519999999}},{"address":"49 Fulton Street, New York, NY","name":"EXCHANGE VIEWS @ ST. MARGARET'S HOUSE ","days":"Thursdays","times":"6:30 AM to 7:30 AM","latLong":{"lat":40.7081354,"lng":-74.00394519999999}},{"address":"49 Fulton Street, New York, NY","name":"EXCHANGE VIEWS @ ST. MARGARET'S HOUSE ","days":"Fridays","times":"6:30 AM to 7:30 AM","latLong":{"lat":40.7081354,"lng":-74.00394519999999}},{"address":"49 Fulton Street, New York, NY","name":"EXCHANGE VIEWS @ ST. MARGARET'S HOUSE ","days":"Mondays","times":"7:30 AM to 8:30 AM","latLong":{"lat":40.7081354,"lng":-74.00394519999999}},{"address":"49 Fulton Street, New York, NY","name":"EXCHANGE VIEWS @ ST. MARGARET'S HOUSE ","days":"Tuesdays","times":"7:30 AM to 8:30 AM","latLong":{"lat":40.7081354,"lng":-74.00394519999999}},{"address":"49 Fulton Street, New York, NY","name":"EXCHANGE VIEWS @ ST. MARGARET'S HOUSE ","days":"Wednesdays","times":"7:30 AM to 8:30 AM","latLong":{"lat":40.7081354,"lng":-74.00394519999999}},{"address":"49 Fulton Street, New York, NY","name":"EXCHANGE VIEWS @ ST. MARGARET'S HOUSE ","days":"Thursdays","times":"7:30 AM to 8:30 AM","latLong":{"lat":40.7081354,"lng":-74.00394519999999}},{"address":"49 Fulton Street, New York, NY","name":"EXCHANGE VIEWS @ ST. MARGARET'S HOUSE ","days":"Fridays","times":"7:30 AM to 8:30 AM","latLong":{"lat":40.7081354,"lng":-74.00394519999999}},{"address":"49 Fulton Street, New York, NY","name":"EXCHANGE VIEWS @ ST. MARGARET'S HOUSE ","days":"Sundays","times":"7:45 AM to 8:45 AM","latLong":{"lat":40.7081354,"lng":-74.00394519999999}},{"address":"49 Fulton Street, New York, NY","name":"EXCHANGE VIEWS @ ST. MARGARET'S HOUSE ","days":"Saturdays","times":"7:45 AM to 8:45 AM","latLong":{"lat":40.7081354,"lng":-74.00394519999999}},{"address":"49 Fulton Street, New York, NY","name":"EXCHANGE VIEWS @ ST. MARGARET'S HOUSE ","days":"Fridays","times":"5:30 PM to 6:30 PM","latLong":{"lat":40.7081354,"lng":-74.00394519999999}},{"address":"20 Cardinal Hayes Place, New York, NY","name":"FRIDAY DOWNTOWN ","days":"Fridays","times":"6:00 PM to 7:00 PM","latLong":{"lat":40.7133628,"lng":-74.0026069}},{"address":"20 Cardinal Hayes Place, New York, NY","name":"PASSING THE BAR ","days":"Mondays","times":"1:15 PM to 2:15 PM","latLong":{"lat":40.7133628,"lng":-74.0026069}},{"address":"22 Barclay Street, New York, NY","name":"GATEWAY ","days":"Sundays","times":"6:00 PM to 7:00 PM","latLong":{"lat":40.7123651,"lng":-74.009564}},{"address":"20 Cardinal Hayes Place, New York, NY","name":"PASSING THE BAR ","days":"Tuesdays","times":"1:15 PM to 2:15 PM","latLong":{"lat":40.7133628,"lng":-74.0026069}},{"address":"20 Cardinal Hayes Place, New York, NY","name":"PASSING THE BAR ","days":"Wednesdays","times":"1:15 PM to 2:15 PM","latLong":{"lat":40.7133628,"lng":-74.0026069}},{"address":"20 Cardinal Hayes Place, New York, NY","name":"PASSING THE BAR ","days":"Thursdays","times":"1:15 PM to 2:15 PM","latLong":{"lat":40.7133628,"lng":-74.0026069}},{"address":"20 Cardinal Hayes Place, New York, NY","name":"PASSING THE BAR ","days":"Fridays","times":"1:15 PM to 2:15 PM","latLong":{"lat":40.7133628,"lng":-74.0026069}},{"address":"22 Barclay Street , New York, NY","name":"S.O.B.E.R. ","days":"Thursdays","times":"7:30 PM to 8:45 PM","latLong":{"lat":40.7123651,"lng":-74.009564}},{"address":"283 West Broadway, New York, NY","name":"SANE AND SOBER ","days":"Wednesdays","times":"7:00 PM to 8:00 PM","latLong":{"lat":40.7208017,"lng":-74.0048389}},{"address":"49 Fulton Street, New York, NY","name":"SEAMEN'S GROUP ","days":"Tuesdays","times":"6:00 PM to 7:00 PM","latLong":{"lat":40.7081354,"lng":-74.00394519999999}},{"address":"125 Barclay Street, New York, NY","name":"SATURDAY AFTERNOON DISCUSSION ","days":"Saturdays","times":"2:00 PM to 3:15 PM","latLong":{"lat":40.7145883,"lng":-74.012958}},{"address":"49 Fulton Street, New York, NY","name":"SEAPORT ","days":"Thursdays","times":"12:15 PM to 1:15 PM","latLong":{"lat":40.7081354,"lng":-74.00394519999999}},{"address":"49 Fulton Street, New York, NY","name":"SEAPORT ","days":"Fridays","times":"12:15 PM to 1:15 PM","latLong":{"lat":40.7081354,"lng":-74.00394519999999}},{"address":"49 Fulton Street, New York, NY","name":"SEAPORT ","days":"Mondays","times":"12:15 PM to 1:15 PM","latLong":{"lat":40.7081354,"lng":-74.00394519999999}},{"address":"49 Fulton Street, New York, NY","name":"SEAPORT ","days":"Wednesdays","times":"12:15 PM to 1:15 PM","latLong":{"lat":40.7081354,"lng":-74.00394519999999}},{"address":"49 Fulton Street, New York, NY","name":"SEAPORT ","days":"Tuesdays","times":"12:15 PM to 1:15 PM","latLong":{"lat":40.7081354,"lng":-74.00394519999999}},{"address":"20 Cardinal Hayes Place, New York, NY","name":"TOWER ","days":"Wednesdays","times":"5:30 PM to 6:30 PM","latLong":{"lat":40.7133628,"lng":-74.0026069}},{"address":"283 West Broadway, New York, NY","name":"TRIANGLE GROUP ","days":"Sundays","times":"11:00 AM to 12:00 PM","latLong":{"lat":40.7208017,"lng":-74.0048389}},{"address":"283 West Broadway, New York, NY","name":"TRIANGLE GROUP ","days":"Fridays","times":"12:30 PM to 1:30 PM","latLong":{"lat":40.7208017,"lng":-74.0048389}},{"address":"283 West Broadway, New York, NY","name":"TRIANGLE GROUP ","days":"Mondays","times":"6:30 PM to 7:30 PM","latLong":{"lat":40.7208017,"lng":-74.0048389}},{"address":"283 West Broadway, New York, NY","name":"TRIANGLE GROUP ","days":"Thursdays","times":"6:30 PM to 7:30 PM","latLong":{"lat":40.7208017,"lng":-74.0048389}},{"address":"49 Fulton Street, New York, NY","name":"TRIBECA GROUP @ ST. MARGARET'S HOUSE ","days":"Fridays","times":"7:30 PM to 8:30 PM","latLong":{"lat":40.7081354,"lng":-74.00394519999999}},{"address":"49 Fulton Street, New York, NY","name":"TRIBECA GROUP @ ST. MARGARET'S HOUSE ","days":"Saturdays","times":"7:30 PM to 8:30 PM","latLong":{"lat":40.7081354,"lng":-74.00394519999999}},{"address":"49 Fulton Street, New York, NY","name":"TRIBECA GROUP @ ST. MARGARET'S HOUSE ","days":"Tuesdays","times":"7:30 PM to 8:30 PM","latLong":{"lat":40.7081354,"lng":-74.00394519999999}},{"address":"49 Fulton Street, New York, NY","name":"TRIBECA GROUP @ ST. MARGARET'S HOUSE ","days":"Thursdays","times":"7:30 PM to 8:30 PM","latLong":{"lat":40.7081354,"lng":-74.00394519999999}},{"address":"22 Barclay Street, New York, NY","name":"TRIBECA GROUP @ ST. PETER'S CHURCH ","days":"Mondays","times":"7:45 PM to 8:45 PM","latLong":{"lat":40.7123651,"lng":-74.009564}},{"address":"22 Barclay Street, New York, NY","name":"TRIBECA GROUP @ ST. PETER'S CHURCH ","days":"Wednesdays","times":"8:00 PM to 9:00 PM","latLong":{"lat":40.7123651,"lng":-74.009564}},{"address":"20 Cardinal Hayes Place, New York, NY","name":"WOMEN'S DOWNTOWN AA STEP MEETING ","days":"Wednesdays","times":"1:15 PM to 2:15 PM","latLong":{"lat":40.7133628,"lng":-74.0026069}},{"address":"283 West Broadway, New York, NY","name":"YOUNG PEOPLE'S DIVERSITY ","days":"Wednesdays","times":"8:30 PM to 9:30 PM","latLong":{"lat":40.7208017,"lng":-74.0048389}},{"address":"283 West Broadway, New York, NY","name":"YOUNG PEOPLE'S STEP ","days":"Tuesdays","times":"7:45 PM to 8:45 PM","latLong":{"lat":40.7208017,"lng":-74.0048389}}]